{
  "artworks": [
    {
      "title": "Girl with a Pearl Earring",
      "date": "c. 1665",
      "type": "Painting",
      "attribution": "Accepted",
      "artistId": "vermeer",
      "artistName": "Johannes Vermeer",
      "locationId": "mauritshuis",
      "location": "Mauritshuis",
      "city": "The Hague",
      "country": "Netherlands",
      "lat": 52.0803,
      "lon": 4.3143,
      "source": "https://www.mauritshuis.nl/en/our-collection/artworks/670-girl-with-a-pearl-earring/",
      "image": ""
    },
    {
      "title": "View of Delft",
      "date": "c. 1660–1661",
      "type": "Painting",
      "attribution": "Accepted",
      "artistId": "vermeer",
      "artistName": "Johannes Vermeer",
      "locationId": "mauritshuis",
      "location": "Mauritshuis",
      "city": "The Hague",
      "country": "Netherlands",
      "lat": 52.0803,
      "lon": 4.3143,
      "source": "https://www.mauritshuis.nl/en/our-collection/",
      "image": ""
    },
    {
      "title": "Diana and Her Nymphs",
      "date": "c. 1653–1654",
      "type": "Painting",
      "attribution": "Accepted",
      "artistId": "vermeer",
      "artistName": "Johannes Vermeer",
      "locationId": "mauritshuis",
      "location": "Mauritshuis",
      "city": "The Hague",
      "country": "Netherlands",
      "lat": 52.0803,
      "lon": 4.3143,
      "source": "https://www.mauritshuis.nl/en/our-collection/",
      "image": ""
    },
    {
      "title": "The Milkmaid",
      "date": "c. 1660",
      "type": "Painting",
      "attribution": "Accepted",
      "artistId": "vermeer",
      "artistName": "Johannes Vermeer",
      "locationId": "rijksmuseum",
      "location": "Rijksmuseum",
      "city": "Amsterdam",
      "country": "Netherlands",
      "lat": 52.36,
      "lon": 4.8852,
      "source": "https://www.rijksmuseum.nl/en/collection/object/The-Milkmaid--42dd0e658c2979aec8e144d2357c55c0",
      "image": ""
    },
    {
      "title": "The Little Street",
      "date": "c. 1658",
      "type": "Painting",
      "attribution": "Accepted",
      "artistId": "vermeer",
      "artistName": "Johannes Vermeer",
      "locationId": "rijksmuseum",
      "location": "Rijksmuseum",
      "city": "Amsterdam",
      "country": "Netherlands",
      "lat": 52.36,
      "lon": 4.8852,
      "source": "https://www.rijksmuseum.nl/en/collection/",
      "image": ""
    },
    {
      "title": "Woman Reading a Letter",
      "date": "c. 1663",
      "type": "Painting",
      "attribution": "Accepted",
      "artistId": "vermeer",
      "artistName": "Johannes Vermeer",
      "locationId": "rijksmuseum",
      "location": "Rijksmuseum",
      "city": "Amsterdam",
      "country": "Netherlands",
      "lat": 52.36,
      "lon": 4.8852,
      "source": "https://www.rijksmuseum.nl/en/collection/",
      "image": ""
    },
    {
      "title": "The Love Letter",
      "date": "c. 1669–1670",
      "type": "Painting",
      "attribution": "Accepted",
      "artistId": "vermeer",
      "artistName": "Johannes Vermeer",
      "locationId": "rijksmuseum",
      "location": "Rijksmuseum",
      "city": "Amsterdam",
      "country": "Netherlands",
      "lat": 52.36,
      "lon": 4.8852,
      "source": "https://www.rijksmuseum.nl/en/collection/object/The%2BLove%2BLetter--508513eb7ee162ec2f68ea3d3138d912",
      "image": ""
    },
    {
      "title": "A Maid Asleep",
      "date": "c. 1656–1657",
      "type": "Painting",
      "attribution": "Accepted",
      "artistId": "vermeer",
      "artistName": "Johannes Vermeer",
      "locationId": "met-vermeer",
      "location": "The Metropolitan Museum of Art",
      "city": "New York",
      "country": "United States",
      "lat": 40.7794,
      "lon": -73.9632,
      "source": "https://www.metmuseum.org/art/collection/search/437878",
      "image": ""
    },
    {
      "title": "Young Woman with a Water Pitcher",
      "date": "c. 1662",
      "type": "Painting",
      "attribution": "Accepted",
      "artistId": "vermeer",
      "artistName": "Johannes Vermeer",
      "locationId": "met-vermeer",
      "location": "The Metropolitan Museum of Art",
      "city": "New York",
      "country": "United States",
      "lat": 40.7794,
      "lon": -73.9632,
      "source": "https://www.metmuseum.org/art/collection/search?q=Johannes%20Vermeer",
      "image": ""
    },
    {
      "title": "Woman with a Lute",
      "date": "c. 1662–1663",
      "type": "Painting",
      "attribution": "Accepted",
      "artistId": "vermeer",
      "artistName": "Johannes Vermeer",
      "locationId": "met-vermeer",
      "location": "The Metropolitan Museum of Art",
      "city": "New York",
      "country": "United States",
      "lat": 40.7794,
      "lon": -73.9632,
      "source": "https://www.metmuseum.org/art/collection/search?q=Johannes%20Vermeer",
      "image": ""
    },
    {
      "title": "Study of a Young Woman",
      "date": "c. 1665–1667",
      "type": "Painting",
      "attribution": "Accepted",
      "artistId": "vermeer",
      "artistName": "Johannes Vermeer",
      "locationId": "met-vermeer",
      "location": "The Metropolitan Museum of Art",
      "city": "New York",
      "country": "United States",
      "lat": 40.7794,
      "lon": -73.9632,
      "source": "https://www.metmuseum.org/art/collection/search?q=Johannes%20Vermeer",
      "image": ""
    },
    {
      "title": "Allegory of the Catholic Faith",
      "date": "c. 1670–1672",
      "type": "Painting",
      "attribution": "Accepted",
      "artistId": "vermeer",
      "artistName": "Johannes Vermeer",
      "locationId": "met-vermeer",
      "location": "The Metropolitan Museum of Art",
      "city": "New York",
      "country": "United States",
      "lat": 40.7794,
      "lon": -73.9632,
      "source": "https://www.metmuseum.org/art/collection/search?q=Johannes%20Vermeer",
      "image": ""
    },
    {
      "title": "A Young Woman Standing at a Virginal",
      "date": "c. 1670–1672",
      "type": "Painting",
      "attribution": "Accepted",
      "artistId": "vermeer",
      "artistName": "Johannes Vermeer",
      "locationId": "national-gallery-vermeer",
      "location": "The National Gallery",
      "city": "London",
      "country": "United Kingdom",
      "lat": 51.5089,
      "lon": -0.1283,
      "source": "https://www.nationalgallery.org.uk/paintings/johannes-vermeer-a-young-woman-standing-at-a-virginal",
      "image": ""
    },
    {
      "title": "A Young Woman Seated at a Virginal",
      "date": "c. 1670–1672",
      "type": "Painting",
      "attribution": "Accepted",
      "artistId": "vermeer",
      "artistName": "Johannes Vermeer",
      "locationId": "national-gallery-vermeer",
      "location": "The National Gallery",
      "city": "London",
      "country": "United Kingdom",
      "lat": 51.5089,
      "lon": -0.1283,
      "source": "https://www.nationalgallery.org.uk/artists/johannes-vermeer",
      "image": ""
    },
    {
      "title": "Woman Holding a Balance",
      "date": "c. 1664",
      "type": "Painting",
      "attribution": "Accepted",
      "artistId": "vermeer",
      "artistName": "Johannes Vermeer",
      "locationId": "nga",
      "location": "National Gallery of Art",
      "city": "Washington, DC",
      "country": "United States",
      "lat": 38.8913,
      "lon": -77.02,
      "source": "https://www.nga.gov/artworks/1236-woman-holding-balance",
      "image": ""
    },
    {
      "title": "Girl with the Red Hat",
      "date": "c. 1665–1666",
      "type": "Painting",
      "attribution": "Accepted",
      "artistId": "vermeer",
      "artistName": "Johannes Vermeer",
      "locationId": "nga",
      "location": "National Gallery of Art",
      "city": "Washington, DC",
      "country": "United States",
      "lat": 38.8913,
      "lon": -77.02,
      "source": "https://www.nga.gov/artists/1951-johannes-vermeer",
      "image": ""
    },
    {
      "title": "A Lady Writing",
      "date": "c. 1665",
      "type": "Painting",
      "attribution": "Accepted",
      "artistId": "vermeer",
      "artistName": "Johannes Vermeer",
      "locationId": "nga",
      "location": "National Gallery of Art",
      "city": "Washington, DC",
      "country": "United States",
      "lat": 38.8913,
      "lon": -77.02,
      "source": "https://www.nga.gov/artists/1951-johannes-vermeer",
      "image": ""
    },
    {
      "title": "Girl with a Flute",
      "date": "c. 1669–1675",
      "type": "Painting",
      "attribution": "Attributed",
      "artistId": "vermeer",
      "artistName": "Johannes Vermeer",
      "locationId": "nga",
      "location": "National Gallery of Art",
      "city": "Washington, DC",
      "country": "United States",
      "lat": 38.8913,
      "lon": -77.02,
      "source": "https://www.nga.gov/artists/1951-johannes-vermeer",
      "image": ""
    },
    {
      "title": "Officer and Laughing Girl",
      "date": "c. 1657",
      "type": "Painting",
      "attribution": "Accepted",
      "artistId": "vermeer",
      "artistName": "Johannes Vermeer",
      "locationId": "frick",
      "location": "The Frick Collection",
      "city": "New York",
      "country": "United States",
      "lat": 40.7712,
      "lon": -73.9673,
      "source": "https://www.frick.org/artists/johannes_vermeer",
      "image": ""
    },
    {
      "title": "Girl Interrupted at Her Music",
      "date": "c. 1658–1659",
      "type": "Painting",
      "attribution": "Accepted",
      "artistId": "vermeer",
      "artistName": "Johannes Vermeer",
      "locationId": "frick",
      "location": "The Frick Collection",
      "city": "New York",
      "country": "United States",
      "lat": 40.7712,
      "lon": -73.9673,
      "source": "https://www.frick.org/artists/johannes_vermeer",
      "image": ""
    },
    {
      "title": "Mistress and Maid",
      "date": "c. 1666–1667",
      "type": "Painting",
      "attribution": "Accepted",
      "artistId": "vermeer",
      "artistName": "Johannes Vermeer",
      "locationId": "frick",
      "location": "The Frick Collection",
      "city": "New York",
      "country": "United States",
      "lat": 40.7712,
      "lon": -73.9673,
      "source": "https://www.frick.org/artists/johannes_vermeer",
      "image": ""
    },
    {
      "title": "The Glass of Wine",
      "date": "c. 1658–1660",
      "type": "Painting",
      "attribution": "Accepted",
      "artistId": "vermeer",
      "artistName": "Johannes Vermeer",
      "locationId": "berlin",
      "location": "Gemäldegalerie",
      "city": "Berlin",
      "country": "Germany",
      "lat": 52.5095,
      "lon": 13.3645,
      "source": "https://www.smb.museum/en/museums-institutions/gemaeldegalerie/home/",
      "image": ""
    },
    {
      "title": "Woman with a Pearl Necklace",
      "date": "c. 1662–1665",
      "type": "Painting",
      "attribution": "Accepted",
      "artistId": "vermeer",
      "artistName": "Johannes Vermeer",
      "locationId": "berlin",
      "location": "Gemäldegalerie",
      "city": "Berlin",
      "country": "Germany",
      "lat": 52.5095,
      "lon": 13.3645,
      "source": "https://www.smb.museum/en/museums-institutions/gemaeldegalerie/home/",
      "image": ""
    },
    {
      "title": "Girl Reading a Letter at an Open Window",
      "date": "c. 1657–1659",
      "type": "Painting",
      "attribution": "Accepted",
      "artistId": "vermeer",
      "artistName": "Johannes Vermeer",
      "locationId": "dresden",
      "location": "Gemäldegalerie Alte Meister",
      "city": "Dresden",
      "country": "Germany",
      "lat": 51.0538,
      "lon": 13.7347,
      "source": "https://gemaeldegalerie.skd.museum/en/",
      "image": ""
    },
    {
      "title": "The Procuress",
      "date": "1656",
      "type": "Painting",
      "attribution": "Accepted",
      "artistId": "vermeer",
      "artistName": "Johannes Vermeer",
      "locationId": "dresden",
      "location": "Gemäldegalerie Alte Meister",
      "city": "Dresden",
      "country": "Germany",
      "lat": 51.0538,
      "lon": 13.7347,
      "source": "https://gemaeldegalerie.skd.museum/en/",
      "image": ""
    },
    {
      "title": "The Lacemaker",
      "date": "c. 1669–1670",
      "type": "Painting",
      "attribution": "Accepted",
      "artistId": "vermeer",
      "artistName": "Johannes Vermeer",
      "locationId": "louvre-vermeer",
      "location": "Musée du Louvre",
      "city": "Paris",
      "country": "France",
      "lat": 48.8606,
      "lon": 2.3376,
      "source": "https://collections.louvre.fr/en/ark:/53355/cl010064921",
      "image": ""
    },
    {
      "title": "The Astronomer",
      "date": "1668",
      "type": "Painting",
      "attribution": "Accepted",
      "artistId": "vermeer",
      "artistName": "Johannes Vermeer",
      "locationId": "louvre-vermeer",
      "location": "Musée du Louvre",
      "city": "Paris",
      "country": "France",
      "lat": 48.8606,
      "lon": 2.3376,
      "source": "https://collections.louvre.fr/en/",
      "image": ""
    },
    {
      "title": "The Art of Painting",
      "date": "c. 1666–1668",
      "type": "Painting",
      "attribution": "Accepted",
      "artistId": "vermeer",
      "artistName": "Johannes Vermeer",
      "locationId": "khm",
      "location": "Kunsthistorisches Museum",
      "city": "Vienna",
      "country": "Austria",
      "lat": 48.2038,
      "lon": 16.3619,
      "source": "https://www.khm.at/en/",
      "image": ""
    },
    {
      "title": "The Geographer",
      "date": "1669",
      "type": "Painting",
      "attribution": "Accepted",
      "artistId": "vermeer",
      "artistName": "Johannes Vermeer",
      "locationId": "staedel",
      "location": "Städel Museum",
      "city": "Frankfurt",
      "country": "Germany",
      "lat": 50.1033,
      "lon": 8.674,
      "source": "https://www.staedelmuseum.de/en/collection/the-geographer-1669",
      "image": ""
    },
    {
      "title": "Woman Writing a Letter, with Her Maid",
      "date": "c. 1670–1671",
      "type": "Painting",
      "attribution": "Accepted",
      "artistId": "vermeer",
      "artistName": "Johannes Vermeer",
      "locationId": "ngi",
      "location": "National Gallery of Ireland",
      "city": "Dublin",
      "country": "Ireland",
      "lat": 53.3409,
      "lon": -6.2525,
      "source": "https://www.nationalgallery.ie/art-and-artists/highlights-collection/woman-writing-letter-her-maid-johannes-vermeer-1632-1675",
      "image": ""
    },
    {
      "title": "Christ in the House of Martha and Mary",
      "date": "c. 1654–1655",
      "type": "Painting",
      "attribution": "Accepted",
      "artistId": "vermeer",
      "artistName": "Johannes Vermeer",
      "locationId": "nsg",
      "location": "National Galleries Scotland",
      "city": "Edinburgh",
      "country": "United Kingdom",
      "lat": 55.9509,
      "lon": -3.1957,
      "source": "https://www.nationalgalleries.org/art-and-artists/5539",
      "image": ""
    },
    {
      "title": "The Music Lesson",
      "date": "c. 1662–1665",
      "type": "Painting",
      "attribution": "Accepted",
      "artistId": "vermeer",
      "artistName": "Johannes Vermeer",
      "locationId": "royal-collection",
      "location": "Royal Collection, Buckingham Palace",
      "city": "London",
      "country": "United Kingdom",
      "lat": 51.5014,
      "lon": -0.1419,
      "source": "https://www.rct.uk/collection/405346/the-music-lesson",
      "image": ""
    },
    {
      "title": "The Guitar Player",
      "date": "c. 1672",
      "type": "Painting",
      "attribution": "Accepted",
      "artistId": "vermeer",
      "artistName": "Johannes Vermeer",
      "locationId": "kenwood",
      "location": "Kenwood House",
      "city": "London",
      "country": "United Kingdom",
      "lat": 51.5714,
      "lon": -0.1675,
      "source": "https://www.english-heritage.org.uk/visit/places/kenwood/history-stories-kenwood/vermeers-guitar-player/",
      "image": ""
    },
    {
      "title": "The Girl with a Wine Glass",
      "date": "c. 1659–1660",
      "type": "Painting",
      "attribution": "Accepted",
      "artistId": "vermeer",
      "artistName": "Johannes Vermeer",
      "locationId": "braunschweig",
      "location": "Herzog Anton Ulrich Museum",
      "city": "Braunschweig",
      "country": "Germany",
      "lat": 52.2647,
      "lon": 10.5267,
      "source": "https://3landesmuseen-braunschweig.de/herzog-anton-ulrich-museum",
      "image": ""
    },
    {
      "title": "Saint Praxedis",
      "date": "1655",
      "type": "Painting",
      "attribution": "Attributed",
      "artistId": "vermeer",
      "artistName": "Johannes Vermeer",
      "locationId": "tokyo",
      "location": "National Museum of Western Art",
      "city": "Tokyo",
      "country": "Japan",
      "lat": 35.7154,
      "lon": 139.7758,
      "source": "https://collection.nmwa.go.jp/en/",
      "image": ""
    }
  ]
}
